{"data":{"locationId":"66000698","chain":"FRYS","address":{"addressLine1":"1311 E. Bell Rd.","city":"Phoenix","state":"AZ","zipCode":"85022","county":"MARICOPA COUNTY"},"geolocation":{"latitude":33.6387404,"longitude":-112.0535518,"latLng":"33.6387404,-112.0535518"},"name":"Fry's Marketplace - Bell Rd \u0026 14th St.","hours":{"timezone":"America/Phoenix","gmtOffset":"(UTC-07:00) Mountain Time (US Canada)","open24":false,"monday":{"open":"06:00","close":"23:00","open24":false},"tuesday":{"open":"06:00","close":"23:00","open24":false},"wednesday":{"open":"06:00","close":"23:00","open24":false},"thursday":{"open":"06:00","close":"23:00","open24":false},"friday":{"open":"06:00","close":"23:00","open24":false},"saturday":{"open":"06:00","close":"23:00","open24":false},"sunday":{"open":"06:00","close":"23:00","open24":false}},"phone":"6025945030","departments":[{"departmentId":"64","name":"Baby World"},{"departmentId":"77","name":"Fried Chicken"},{"departmentId":"86","name":"Propane"},{"departmentId":"38","name":"Apparel"},{"departmentId":"36","name":"Home Fashion And Decor"},{"departmentId":"23","name":"Drug \u0026 General Merchandise"},{"departmentId":"02","name":"Bakery"},{"departmentId":"03","name":"Cheese Counter"},{"departmentId":"0G","name":"Meal Kits"},{"departmentId":"21","name":"Self Checkout"},{"departmentId":"69","name":"Online Deli/Bakery Ordering"},{"departmentId":"94","name":"Pickup"},{"departmentId":"01","name":"Deli"},{"departmentId":"56","name":"Little Clinic/Medical Center/Urgent Care"},{"departmentId":"46","name":"Sushi"},{"departmentId":"09","name":"Pharmacy","phone":"6025945035","hours":{"open24":false,"monday":{"open":"09:00","close":"21:00","open24":false},"tuesday":{"open":"09:00","close":"21:00","open24":false},"wednesday":{"open":"09:00","close":"21:00","open24":false},"thursday":{"open":"09:00","close":"21:00","open24":false},"friday":{"open":"09:00","close":"21:00","open24":false},"saturday":{"open":"09:00","close":"18:00","open24":false},"sunday":{"open":"10:00","close":"17:00","open24":false}},"address":{"addressLine1":"1311 E. Bell Rd.","city":"Phoenix","state":"AZ","zipCode":"85022"},"geolocation":{"latitude":33.6387404,"longitude":-112.0535518,"latLng":"33.6387404,-112.0535518"},"offsite":true},{"departmentId":"10","name":"Gas Station","phone":"6025945029","hours":{"open24":false,"monday":{"open":"05:00","close":"22:00","open24":false},"tuesday":{"open":"05:00","close":"22:00","open24":false},"wednesday":{"open":"05:00","close":"22:00","open24":false},"thursday":{"open":"05:00","close":"22:00","open24":false},"friday":{"open":"05:00","close":"22:00","open24":false},"saturday":{"open":"05:00","close":"22:00","open24":false},"sunday":{"open":"05:00","close":"22:00","open24":false}},"address":{"addressLine1":"1307 E. Bell Rd.","city":"Phoenix","state":"AZ","zipCode":"85022"},"geolocation":{"latitude":33.6390533,"longitude":-112.0536346,"latLng":"33.6390533,-112.0536346"},"offsite":true},{"departmentId":"12","name":"Cosmetics"},{"departmentId":"44","name":"Beer"},{"departmentId":"45","name":"Wine"},{"departmentId":"65","name":"Money Services"},{"departmentId":"74","name":"Wine Tasting Bar"},{"departmentId":"08","name":"Floral"},{"departmentId":"89","name":"Western Union"},{"departmentId":"06","name":"Liquor"},{"departmentId":"0C","name":"Scan, Bag, Go"},{"departmentId":"16","name":"Drive-thru Pharmacy"},{"departmentId":"55","name":"Atm"},{"departmentId":"58","name":"Free Wireless Access"},{"departmentId":"04","name":"Meat Department"},{"departmentId":"48","name":"Starbucks"},{"departmentId":"49","name":"Kitchen Place"},{"departmentId":"62","name":"Urgent Care"},{"departmentId":"88","name":"Perishables"},{"departmentId":"05","name":"Seafood Department"},{"departmentId":"35","name":"Home Goods"},{"departmentId":"99","name":"Check Cashing"},{"departmentId":"32","name":"Natural And Organics"}]},"meta":{}}